{
	"name": "Brasília",
	"estate": "DF",
	"info": "Brasília é a capital federal do Brasil e a sede do governo do Distrito Federal. A cidade está localizada na região geográfica conhecida como Planalto Central. É a quarta cidade brasileira mais populosa, e a maior cidade do mundo construída no século XX.",
	"geo":
	{
		"lat": "-47.7976436",
		"lng": "-15.7759668"
	},
	"base_price" : "500",
	"points": [
		{
			"name": "Congresso Nacional",
						
			"geo":
			{
				"lat": "-47.864112",
				"lng": "-15.7994769"
			},

			"pic_url" : "https://i.imgur.com/Lj3K9We.jpg"
		},

		{
			"name": "Ponte J. Kubitschek",
						
			"geo":
			{
				"lat": "-47.8290294",
				"lng": "-15.8246377"
			},

			"pic_url" : "https://i.imgur.com/H61XkiU.jpg"
		},

		{
			"name": "Pontão do Lago Sul",
						
			"geo":
			{
				"lat": "-47.8734237",
				"lng": "-15.8263724"
			},

			"pic_url" : "https://i.imgur.com/UKFBAO8.jpg"
		},

		{
			"name": "Estádio Mané Garrincha",
			
			"geo":
			{
				"lat": "-47.8985485",
				"lng": "-15.7832831"
			},

			"pic_url" : "https://i.imgur.com/L4TI6IA.jpg"
		}
	]
}