{
	"name": "Natal",
	"estate": "RN",
	"info": "Natal é um município brasileiro, capital do estado do Rio Grande do Norte. Fundada em 1599, às margens do Rio Potenji, a cidade é conhecida mundialmente11 e conta com importantes monumentos, parques e museus e pontos turísticos.",
	"geo":
	{
		"lat": "-35.2223205",
		"lng": "-5.8019527"
	},
	"base_price" : "1100",
	"points": [
		{
			"name": "Praia da Redinha",
						
			"geo":
			{
				"lat": "-35.2010774",
				"lng": "-5.7474221"
			},

			"pic_url" : "https://i.imgur.com/MdzDRHz.png"
		},

		{
			"name": "Parque Estadual Dunas",
						
			"geo":
			{
				"lat": "-35.189372",
				"lng": "-5.830147"
			},

			"pic_url" : "https://i.imgur.com/A9PecZU.jpg"
		},

		{
			"name": "Praia de Ponta Negra",
						
			"geo":
			{
				"lat": "-35.169464",
				"lng": "-5.882482"
			},

			"pic_url" : "https://i.imgur.com/h2DWwWU.jpg"
		},

		{
			"name": "Arena das Dunas",
			
			"geo":
			{
				"lat": "-35.2124207",
				"lng": "-5.8268059"
			},

			"pic_url" : "https://i.imgur.com/N8NMArV.jpg"
		}
	]
}