{
	"name": "Rio de Janeiro",
	"estate": "RJ",
	"info": "Rio de Janeiro, capital do estado homônimo, é a segunda maior metrópole do Brasil. É também conhecida por Cidade Maravilhosa. É um dos principais centros econômicos, culturais e financeiros do país, sendo internacionalmente conhecida por diversos ícones culturais e paisagísticos.",
	"geo":
	{
		"lat": "-43.449703",
		"lng": "-22.9156912"
	},
	"base_price" : "600",
	"points": [
		{
			"name": "Cristo Redentor",
						
			"geo":
			{
				"lat": "-43.210632",
				"lng": "-22.951888"
			},

			"pic_url" : "https://i.imgur.com/dsAQdY3.jpg"
		},

		{
			"name": "Praia de Copacabana",
						
			"geo":
			{
				"lat": "-43.1873689",
				"lng": "-22.9750721"
			},

			"pic_url" : "http://i.imgur.com/K6UzUEV.jpg"
		},

		{
			"name": "Pão de Açúcar",
						
			"geo":
			{
				"lat": "-43.155954",
				"lng": "-22.951280"
			},

			"pic_url" : "https://i.imgur.com/WQEaCMi.jpg"
		},

		{
			"name": "Maracanã",
			
			"geo":
			{
				"lat": "-43.2302721",
				"lng": "-22.9123256"
			},

			"pic_url" : "https://i.imgur.com/KhIbZyC.jpg"
		}
	]
}