{
	"name": "Belém",
	"estate": "PA",
	"info": "Belém é capital do estado do Pará. A cidade exerce significativa influência nacional, seja do ponto de vista cultural, econômico ou político. Conta com importantes monumentos, parques e museus",
	"geo":
	{
		"lat": "-48.4392935",
		"lng": "-1.343203"
	},
	"base_price" : "800",
	"points": [
		{
			"name": "Forte do Castelo",
						
			"geo":
			{
				"lat": "-48.505417",
				"lng": "-1.454392"
			},

			"pic_url" : "https://i.imgur.com/220eLWH.jpg"
		},

		{
			"name": "Teatro da Paz",
						
			"geo":
			{
				"lat": "-48.4936812",
				"lng": "-1.4529846"
			},

			"pic_url" : "https://i.imgur.com/2UOsZqU.jpg"
		},

		{
			"name": "Baía do Guajará",
						
			"geo":
			{
				"lat": "-48.5049761",
				"lng": "-1.4180321"
			},

			"pic_url" : "https://i.imgur.com/EA9eGMH.jpg"
		},

		{
			"name": "Mercado do Ver-o-Peso",
						
			"geo":
			{
				"lat": "-48.5035756",
				"lng": "-1.4522171"
			},

			"pic_url" : "https://i.imgur.com/1kG00tD.jpg"
		}	
	]
}